[
  {
    "lat": 21.019863,
    "lng": 105.846818,
    "title": "Phố Nguyễn Gia Thiều",
    "threadPostId": "18317225464080564"
  },
  {
    "lat": 21.035971,
    "lng": 105.831382,
    "title": "Phố Ngọc Hà",
    "threadPostId": "18024137057597848"
  },
  {
    "lat": 21.0159272,
    "lng": 105.8540908,
    "title": "36 Thi Sách",
    "threadPostId": "18049746571817161"
  },
  {
    "lat": 21.02251,
    "lng": 105.853588,
    "title": "Thư viện KH&CN Quốc gia",
    "threadPostId": "18317225464080564"
  },
  {
    "lat": 21.041801,
    "lng": 105.836669,
    "title": "80 Phố Phan Đình Phùng",
    "threadPostId": "18024137057597848"
  },
  {
    "lat": 21.043934,
    "lng": 105.833769,
    "title": "Bến thủy phi cơ Hồ Tây",
    "threadPostId": "17865585555361384"
  },
  {
    "lat": 21.0255539,
    "lng": 105.8534442,
    "title": "91 Phố Đinh Tiên Hoàng",
    "threadPostId": "18081421768493094"
  },
  {
    "lat": 21.010008,
    "lng": 105.852714,
    "title": "Phố Thịnh Yên",
    "threadPostId": "18289718776211260"
  },
  {
    "lat": 21.025942,
    "lng": 105.855744,
    "title": "Sofitel Legend Metropole Hanoi",
    "threadPostId": "17949704168879730"
  },
  {
    "lat": 21.0248712,
    "lng": 105.833,
    "title": "Phố Tôn Đức Thắng",
    "threadPostId": "17946460019919194"
  },
  {
    "lat": 21.0404851,
    "lng": 105.8292555,
    "title": "Dốc La Pho",
    "threadPostId": "17860039065335963"
  },
  {
    "lat": 21.032044,
    "lng": 105.8372469,
    "title": "Phố Khúc Hạo",
    "threadPostId": "18036280814151147"
  },
  {
    "lat": 21.036,
    "lng": 105.8395,
    "title": "Đường Hoàng Diệu",
    "threadPostId": "18048619508186412"
  },
  {
    "lat": 21.043591,
    "lng": 105.845101,
    "title": "Phố Phạm Hồng Thái",
    "threadPostId": "18117825169403088"
  },
  {
    "lat": 21.0316361,
    "lng": 105.8052903,
    "title": "Vườn thú Hà Nội",
    "threadPostId": "18078099523627454"
  }
]
