[
  {
    "lat": 21.0201114,
    "lng": 105.8433613,
    "title": "Phố Nguyễn Gia Thiều",
    "threadPostId": "18317225464080564"
  },
  {
    "lat": 21.035971,
    "lng": 105.831382,
    "title": "Phố Ngọc Hà",
    "threadPostId": "18024137057597848"
  },
  {
    "lat": 21.0159685,
    "lng": 105.8492218,
    "title": "36 Thi Sách",
    "threadPostId": "18049746571817161"
  },
  {
    "lat": 21.0227236,
    "lng": 105.8506722,
    "title": "Thư viện KH&CN Quốc gia",
    "threadPostId": "18317225464080564"
  },
  {
    "lat": 21.041801,
    "lng": 105.836669,
    "title": "80 Phố Phan Đình Phùng",
    "threadPostId": "18024137057597848"
  },
  {
    "lat": 21.0257417,
    "lng": 105.8508792,
    "title": "91 Phố Đinh Tiên Hoàng",
    "threadPostId": "18081421768493094"
  },
  {
    "lat": 21.0099937,
    "lng": 105.8502816,
    "title": "Phố Thịnh Yên",
    "threadPostId": "18289718776211260"
  },
  {
    "lat": 21.0254124,
    "lng": 105.8515094,
    "title": "Sofitel Legend Metropole Hanoi",
    "threadPostId": "17949704168879730"
  },
  {
    "lat": 21.0248712,
    "lng": 105.833,
    "title": "Phố Tôn Đức Thắng",
    "threadPostId": "17946460019919194"
  },
  {
    "lat": 21.0404851,
    "lng": 105.8292555,
    "title": "Dốc La Pho",
    "threadPostId": "17860039065335963"
  },
  {
    "lat": 21.035,
    "lng": 105.8408,
    "title": "Phố Khúc Hạo",
    "threadPostId": "18036280814151147"
  },
  {
    "lat": 21.036,
    "lng": 105.8395,
    "title": "Đường Hoàng Diệu",
    "threadPostId": "18048619508186412"
  },
  {
    "lat": 21.043444,
    "lng": 105.845458,
    "title": "Phố Phạm Hồng Thái",
    "threadPostId": "18117825169403088"
  },
  {
    "lat": 21.0316361,
    "lng": 105.8052903,
    "title": "Vườn thú Hà Nội",
    "threadPostId": "18078099523627454"
  }
]
